Region,Site,Lat,Long
Nanaimo,Heron,49.0458,-123.7554
Nanaimo,Cedar,49.1142,-123.8053
Calvert,Pruth,51.6564,-128.1304
Calvert,Kwakshua,51.6482,-127.9962
Lighthouse,Departure Bay,49.2064,-123.9624
Lighthouse,Egg Island,51.2483,-127.8338